# password: test12

brian:
  id: 1
  email: brian.terlson@gmail.com
  crypted_password: 27e5532e75526ff4574e3e8c8c2a48fb97415765
  salt: asdf
  created_at: <%=40.days.ago.to_s(:db)%>
  name: BrianCo
  contact_name: Brian Terlson
  city: Minneapolis
  state: MN
  zip_code: 55407
  industry: "Healthcare"
  latitude: 0.784271815164674
  longitude: -1.62758974208052

josh:
  id: 2
  email: flec0025@umn.edu
  crypted_password: 27e5532e75526ff4574e3e8c8c2a48fb97415765
  salt: asdf
  created_at: <%=30.days.ago.to_s(:db)%>
  name: Josh Inc.
  contact_name: Josh Fleck
  city: Lakeville
  state: MN
  zip_code: 55044
  industry: "Healthcare"
  latitude: 0.77900015287878
  longitude: -1.62766124821997
  
dave:
  id: 3
  email: pete2786@umn.edu
  crypted_password: 27e5532e75526ff4574e3e8c8c2a48fb97415765
  salt: asdf
  created_at: <%=20.days.ago.to_s(:db)%>
  name: Dave LLC
  contact_name: David Peterson
  city: St. Paul
  state: MN
  zip_code: 55108
  industry: "Healthcare"
  latitude: 0.785059813868657
  longitude: -1.62624756643244
  
compsage1:
  id: 4
  email: compsage1@hotmail.com
  crypted_password: 27e5532e75526ff4574e3e8c8c2a48fb97415765
  salt: asdf
  created_at: <%=20.days.ago.to_s(:db)%>
  name: Microsoft Corp
  contact_name: Bill Gates
  location: Headquarters
  city: Redmond
  state: WA
  zip_code: 98000
  industry: "Technology"
  latitude: 0.8319887581520747
  longitude: -2.13146395645083  
  
compsage2:
  id: 5
  email: compsage2@hotmail.com
  crypted_password: 27e5532e75526ff4574e3e8c8c2a48fb97415765
  salt: asdf
  created_at: <%=20.days.ago.to_s(:db)%>
  name: Apple Inc
  contact_name: Steve Jobs
  location: Main Office
  city: Cupertino
  state: CA
  zip_code: 95014
  industry: "Technology"
  latitude: 0.6513132436129839
  longitude: -2.1300337560915574  
  
compsage3:
  id: 6
  email: compsage3@hotmail.com
  crypted_password: 27e5532e75526ff4574e3e8c8c2a48fb97415765
  salt: asdf
  created_at: <%=20.days.ago.to_s(:db)%>
  name: Oracle Corp
  contact_name: Larry Ellison
  location: Homebase
  city: Redwood Shores
  state: CA
  zip_code: 94059
  industry: "Technology"
  latitude: 0.6541978850155856
  longitude: -2.133422603722513    
  
compsage4:
  id: 7
  email: compsage4@hotmail.com
  crypted_password: 27e5532e75526ff4574e3e8c8c2a48fb97415765
  salt: asdf
  created_at: <%=20.days.ago.to_s(:db)%>
  name: Sun Microsystems
  contact_name: Scott McNealy
  location: 
  city: Santa Clara
  state: CA
  zip_code: 95050
  industry: "Technology"
  latitude: 0.6519580458088596
  longitude: -2.1287635442470503 
  
 
